{"type": "FeatureCollection", "features": [{"id": "0", "type": "Feature", "properties": {"L3": true, "L4": true, "L5": true, "L6": true, "end_date": "2017-11-28 11:30:00", "lat": -34.9878, "lng": 146.2908, "site": "Yanco"}, "geometry": {"type": "Point", "coordinates": [146.2908, -34.9878]}}, {"id": "1", "type": "Feature", "properties": {"L3": true, "L4": true, "L5": true, "L6": true, "end_date": "2017-08-18 13:30:00", "lat": -37.4222, "lng": 144.0944, "site": "WombatStateForest"}, "geometry": {"type": "Point", "coordinates": [144.0944, -37.4222]}}, {"id": "2", "type": "Feature", "properties": {"L3": true, "L4": true, "L5": true, "L6": true, "end_date": "2017-10-24 21:30:00", "lat": -36.6732, "lng": 145.0294, "site": "Whroo"}, "geometry": {"type": "Point", "coordinates": [145.0294, -36.6732]}}, {"id": "3", "type": "Feature", "properties": {"L3": true, "L4": true, "L5": true, "L6": true, "end_date": "2017-04-24 10:00:00", "lat": -43.09502, "lng": 146.65452, "site": "Warra"}, "geometry": {"type": "Point", "coordinates": [146.65452, -43.09502]}}, {"id": "4", "type": "Feature", "properties": {"L3": true, "L4": true, "L5": true, "L6": true, "end_date": "2013-04-09 08:30:00", "lat": -34.00206, "lng": 140.58912, "site": "WallabyCreek"}, "geometry": {"type": "Point", "coordinates": [140.58912, -34.00206]}}, {"id": "5", "type": "Feature", "properties": {"L3": true, "L4": true, "L5": true, "L6": true, "end_date": "2017-06-30 23:00:00", "lat": -35.6566, "lng": 148.1516, "site": "Tumbarumba"}, "geometry": {"type": "Point", "coordinates": [148.1516, -35.6566]}}, {"id": "6", "type": "Feature", "properties": {"L3": true, "L4": true, "L5": true, "L6": true, "end_date": "2017-11-04 10:00:00", "lat": -22.287, "lng": 133.64, "site": "TiTreeEast"}, "geometry": {"type": "Point", "coordinates": [133.64, -22.287]}}, {"id": "7", "type": "Feature", "properties": {"L3": true, "L4": true, "L5": true, "L6": true, "end_date": "2017-09-21 05:30:00", "lat": -17.1507, "lng": 133.3502, "site": "SturtPlains"}, "geometry": {"type": "Point", "coordinates": [133.3502, -17.1507]}}, {"id": "8", "type": "Feature", "properties": {"L3": true, "L4": true, "L5": true, "L6": true, "end_date": "2017-07-11 09:00:00", "lat": -27.38806, "lng": 152.87778, "site": "Samford"}, "geometry": {"type": "Point", "coordinates": [152.87778, -27.38806]}}, {"id": "9", "type": "Feature", "properties": {"L3": true, "L4": true, "L5": true, "L6": true, "end_date": "2017-09-05 00:00:00", "lat": -17.11746943, "lng": 145.6301375, "site": "RobsonCreek"}, "geometry": {"type": "Point", "coordinates": [145.6301375, -17.11746943]}}, {"id": "10", "type": "Feature", "properties": {"L3": true, "L4": true, "L5": true, "L6": true, "end_date": "2017-07-12 17:00:00", "lat": -36.656, "lng": 145.576, "site": "RiggsCreek"}, "geometry": {"type": "Point", "coordinates": [145.576, -36.656]}}, {"id": "11", "type": "Feature", "properties": {"L3": true, "L4": true, "L5": true, "L6": false, "end_date": "2017-02-04 17:00:00", "lat": -32.506102, "lng": 116.966827, "site": "Ridgefield"}, "geometry": {"type": "Point", "coordinates": [116.966827, -32.506102]}}, {"id": "12", "type": "Feature", "properties": {"L3": true, "L4": true, "L5": true, "L6": true, "end_date": "2013-07-21 23:00:00", "lat": -14.563639, "lng": 132.477567, "site": "RedDirtMelonFarm"}, "geometry": {"type": "Point", "coordinates": [132.477567, -14.563639]}}, {"id": "13", "type": "Feature", "properties": {"L3": true, "L4": true, "L5": true, "L6": true, "end_date": "2010-12-31 23:00:00", "lat": -38.525, "lng": 142.81, "site": "Otway"}, "geometry": {"type": "Point", "coordinates": [142.81, -38.525]}}, {"id": "14", "type": "Feature", "properties": {"L3": true, "L4": true, "L5": true, "L6": true, "end_date": "2009-06-09 10:00:00", "lat": -34.47035, "lng": 140.65512, "site": "Loxton"}, "geometry": {"type": "Point", "coordinates": [140.65512, -34.47035]}}, {"id": "15", "type": "Feature", "properties": {"L3": true, "L4": true, "L5": true, "L6": true, "end_date": "2017-11-28 11:00:00", "lat": -13.17904178, "lng": 130.7945459, "site": "Litchfield"}, "geometry": {"type": "Point", "coordinates": [130.7945459, -13.17904178]}}, {"id": "16", "type": "Feature", "properties": {"L3": true, "L4": true, "L5": true, "L6": true, "end_date": "2017-11-28 18:00:00", "lat": -12.4952, "lng": 131.15005, "site": "HowardSprings"}, "geometry": {"type": "Point", "coordinates": [131.15005, -12.4952]}}, {"id": "17", "type": "Feature", "properties": {"L3": true, "L4": true, "L5": true, "L6": true, "end_date": "2017-11-02 23:30:00", "lat": -30.1914, "lng": 120.65416666666667, "site": "GreatWesternWoodlands"}, "geometry": {"type": "Point", "coordinates": [120.65416666666667, -30.1914]}}, {"id": "18", "type": "Feature", "properties": {"L3": true, "L4": true, "L5": true, "L6": true, "end_date": "2017-10-31 13:30:00", "lat": -31.375, "lng": 115.65, "site": "Gingin"}, "geometry": {"type": "Point", "coordinates": [115.65, -31.375]}}, {"id": "19", "type": "Feature", "properties": {"L3": true, "L4": true, "L5": true, "L6": true, "end_date": "2008-10-31 17:30:00", "lat": -12.5452, "lng": 131.3072, "site": "FoggDam"}, "geometry": {"type": "Point", "coordinates": [131.3072, -12.5452]}}, {"id": "20", "type": "Feature", "properties": {"L3": true, "L4": true, "L5": true, "L6": true, "end_date": "2013-12-31 23:30:00", "lat": -23.85872, "lng": 148.4746, "site": "Emerald"}, "geometry": {"type": "Point", "coordinates": [148.4746, -23.85872]}}, {"id": "21", "type": "Feature", "properties": {"L3": true, "L4": true, "L5": true, "L6": true, "end_date": "2017-06-19 12:30:00", "lat": -15.2588, "lng": 132.3706, "site": "DryRiver"}, "geometry": {"type": "Point", "coordinates": [132.3706, -15.2588]}}, {"id": "22", "type": "Feature", "properties": {"L3": true, "L4": true, "L5": true, "L6": true, "end_date": "2017-11-01 10:30:00", "lat": -14.1592, "lng": 131.3881, "site": "DalyUncleared"}, "geometry": {"type": "Point", "coordinates": [131.3881, -14.1592]}}, {"id": "23", "type": "Feature", "properties": {"L3": true, "L4": true, "L5": true, "L6": true, "end_date": "2013-09-08 13:00:00", "lat": -17.1507, "lng": 133.3502, "site": "DalyPasture"}, "geometry": {"type": "Point", "coordinates": [133.3502, -17.1507]}}, {"id": "24", "type": "Feature", "properties": {"L3": true, "L4": true, "L5": true, "L6": true, "end_date": "2016-12-31 23:00:00", "lat": -33.615278, "lng": 150.723611, "site": "CumberlandPlain"}, "geometry": {"type": "Point", "coordinates": [150.723611, -33.615278]}}, {"id": "25", "type": "Feature", "properties": {"L3": true, "L4": true, "L5": true, "L6": true, "end_date": "2016-06-30 23:30:00", "lat": -16.238189, "lng": 145.42715, "site": "CowBay"}, "geometry": {"type": "Point", "coordinates": [145.42715, -16.238189]}}, {"id": "26", "type": "Feature", "properties": {"L3": true, "L4": true, "L5": true, "L6": true, "end_date": "2017-08-18 14:00:00", "lat": -16.103219, "lng": 145.446922, "site": "CapeTribulation"}, "geometry": {"type": "Point", "coordinates": [145.446922, -16.103219]}}, {"id": "27", "type": "Feature", "properties": {"L3": true, "L4": true, "L5": true, "L6": true, "end_date": "2017-07-11 08:30:00", "lat": -34.00206, "lng": 140.58912, "site": "Calperum"}, "geometry": {"type": "Point", "coordinates": [140.58912, -34.00206]}}, {"id": "28", "type": "Feature", "properties": {"L3": true, "L4": true, "L5": true, "L6": true, "end_date": "2017-11-01 02:30:00", "lat": -22.283, "lng": 133.249, "site": "AliceSpringsMulga"}, "geometry": {"type": "Point", "coordinates": [133.249, -22.283]}}, {"id": "29", "type": "Feature", "properties": {"L3": true, "L4": true, "L5": true, "L6": true, "end_date": "2009-05-24 05:30:00", "lat": -13.0769, "lng": 131.1178, "site": "AdelaideRiver"}, "geometry": {"type": "Point", "coordinates": [131.1178, -13.0769]}}]}